5.55883400,4605.518,0.000,0.000,99.990*5b
$AOSTS,5E0C7062,825000,22041084,20000000*5e
$AOSEN,+00.0798,+00.0239,+00.9938,-0.0023,+0.0004,+0.0022,+0.0002,+0.0000,-0.0004*79
$GPGGA,101147.02,1834.354310,N,07345.860539,E,0,00,99.99,0086.71,M,,,,0000*3c
$GPRMC,101147.02,V,1834.354310,N,07345.860539,E,000.00,000.00,010120,000.30,W,N*04
$AOVEL,-000.00,+000.00,+000.00,-000.00,+000.00,+000.00*51
$AOATT,+001.37,-04.59,-021.55,+0.98,+0.00,-0.04,-0.19,01*48
$AOGPS,0,0,00,27.74941780,125.55917870,4605.561,0.000,0.000,99.990*50
$AOSTS,5E0C7063,025000,22041084,20000000*57
$AOSEN,+00.0800,+00.0239,+00.9946,+0.0001,-0.0015,+0.0020,+0.0003,+0.0009,+0.0000*76
$GPGGA,101147.22,1834.354310,N,07345.860539,E,0,00,99.99,0086.68,M,,,,0000*36
$GPRMC,101147.22,V,1834.354310,N,07345.860539,E,000.00,000.00,010120,000.30,W,N*06
$AOVEL,-000.00,+000.00,+000.00,-000.00,+000.00,+000.00*51
$AOATT,+001.37,-04.59,-021.55,+0.98,+0.00,-0.04,-0.19,01*48
$AOGPS,0,0,00,27.74955970,125.55952330,4605.605,0.000,0.000,99.990*5b
$AOSTS,5E0C7063,225000,22041084,20000000*55
$AOSEN,+00.0800,+00.0244,+00.9941,-0.0032,+0.0006,+0.0016,-0.0030,+0.0015,-0.0001*70
$GPGGA,101147.42,1834.354310,N,07345.860539,E,0,00,99.99,0086.68,M,,,,0000*30
$GPRMC,101147.42,V,1834.354310,N,07345.860539,E,000.00,000.00,010120,000.30,W,N*00
$AOVEL,-000.00,+000.00,+000.00,-000.00,+000.00,+000.00*51
$AOATT,+001.37,-04.59,-021.55,+0.98,+0.00,-0.04,-0.19,01*48
$AOGPS,0,0,00,27.74970160,125.55986800,4605.648,0.000,0.000,99.990*5d
$AOSTS,5E0C7063,425000,22041084,20000000*53
$AOSEN,+00.0802,+00.0233,+00.9940,-0.0018,-0.0007,+0.0020,+0.0002,-0.0004,-0.0003*7a
$GPGGA,101147.62,1834.354310,N,07345.860539,E,0,00,99.99,0086.71,M,,,,0000*3a
$GPRMC,101147.62,V,1834.354310,N,07345.860539,E,000.00,000.00,010120,000.30,W,N*02
$AOVEL,-000.00,+000.00,-000.00,+000.00,-000.00,-000.00*51
$AOATT,+001.37,-04.58,-021.55,+0.98,+0.00,-0.04,-0.19,01*49
$AOGPS,0,0,00,27.74984360,125.56021260,4605.692,0.000,0.000,99.990*58
$AOSTS,5E0C7063,625000,22041084,20000000*51
$AOSEN,+00.0801,+00.0234,+00.9942,-0.0031,+0.0020,+0.0022,-0.0020,+0.0026,+0.0004*77
$GPGGA,101147.82,1834.354310,N,07345.860539,E,0,00,99.99,0086.71,M,,,,0000*34
$GPRMC,101147.82,V,1834.354310,N,07345.860539,E,000.00,000.00,010120,000.30,W,N*0c
$AOVEL,-000.00,+000.00,-000.00,+000.00,-000.00,-000.00*51
$AOATT,+001.37,-04.59,-021.55,+0.98,+0.00,-0.04,-0.19,01*48
$AOGPS,0,0,00,27.74998550,125.56055720,4605.735,0.000,0.000,99.990*5e
$AOSTS,5E0C7063,825000,22041084,20000000*5f
$AOSEN,+00.0797,+00.0235,+00.9944,-0.0012,+0.0006,+0.0018,+0.0002,-0.0001,+0.0000*7d
$GPGGA,101148.02,1834.354310,N,07345.860539,E,0,00,99.99,0086.71,M,,,,0000*33
$GPRMC,101148.02,V,1834.354310,N,07345.860539,E,000.00,000.00,010120,000.30,W,N*0b
$AOVEL,-000.00,+000.00,-000.00,+000.00,-000.00,-000.00*51
$AOATT,+001.37,-04.59,-021.55,+0.98,+0.00,-0.04,-0.19,01*48
$AOGPS,0,0,00,27.75012740,125.56090180,4605.779,0.000,0.000,99.990*5a
$AOSTS,5E0C7064,025000,22041084,20000000*50
$AOSEN,+00.0796,+00.0237,+00.9942,-0.0013,+0.0013,+0.0020,-0.0001,+0.0003,-0.0004*75
$GPGGA,101148.22,1834.354310,N,07345.860539,E,0,00,99.99,0086.73,M,,,,0000*33
$GPRMC,101148.22,V,1834.354310,N,07345.860539,E,000.00,000.00,010120,000.30,W,N*09
$AOVEL,-000.00,+000.00,-000.00,+000.00,-000.00,-000.00*51
$AOATT,+001.37,-04.58,-021.56,+0.98,+0.00,-0.04,-0.19,01*4a
$AOGPS,0,0,00,27.75026930,125.56124640,4605.822,0.000,0.000,99.990*50
$AOSTS,5E0C7064,225000,22041084,20000000*52
$AOSEN,+00.0797,+00.0238,+00.9940,-0.0012,+0.0001,+0.0016,+0.0002,-0.0007,-0.0002*7f
$GPGGA,101148.42,1834.354310,N,07345.860539,E,0,00,99.99,0086.72,M,,,,0000*34
$GPRMC,101148.42,V,1834.354310,N,07345.860539,E,000.00,000.00,010120,000.30,W,N*0f
$AOVEL,-000.00,+000.00,-000.00,+000.00,-000.00,-000.00*51
$AOATT,+001.37,-04.58,-021.56,+0.98,+0.00,-0.04,-0.19,01*4a
$AOGPS,0,0,00,27.75041110,125.56159090,4605.865,0.000,0.000,99.990*59
$AOSTS,5E0C7064,425000,22041084,20000000*54
$AOSEN,+00.0801,+00.0239,+00.9939,-0.0000,-0.0000,+0.0020,+0.0012,+0.0001,-0.0003*71
$GPGGA,101148.62,1834.354310,N,07345.860539,E,0,00,99.99,0086.73,M,,,,0000*37
$GPRMC,101148.62,V,1834.354310,N,07345.860539,E,000.00,000.00,010120,000.30,W,N*0d
$AOVEL,-000.00,+000.00,-000.00,+000.00,-000.00,-000.00*51
$AOATT,+001.37,-04.58,-021.56,+0.98,+0.00,-0.04,-0.19,01*4a
$AOGPS,0,0,00,27.75055300,125.56193540,4605.909,0.000,0.000,99.990*5a
$AOSTS,5E0C7064,625000,22041084,20000000*56
$AOSEN,+00.0798,+00.0242,+00.9945,-0.0035,+0.0001,+0.0022,-0.0014,+0.0019,+0.0001*77
$GPGGA,101148.82,1834.354310,N,07345.860539,E,0,00,99.99,0086.74,M,,,,0000*3e
$GPRMC,101148.82,V,1834.354310,N,07345.860539,E,000.00,000.00,010120,000.30,W,N*03
$AOVEL,-000.00,+000.00,-000.00,+000.00,-000.00,-000.00*51
$AOATT,+001.37,-04.59,-021.56,+0.98,+0.00,-0.04,-0.19,01*4b
$AOGPS,0,0,00,27.75069480,125.56227990,4605.952,0.000,0.000,99.990*59
$AOSTS,5E0C7064,825000,22041084,20000000*58
$AOSEN,+00.0796,+00.0233,+00.9929,-0.0024,+0.0004,+0.0018,+0.0012,-0.0013,+0.0001*75
$GPGGA,101149.02,1834.354310,N,07345.860539,E,0,00,99.99,0086.73,M,,,,0000*30
$GPRMC,101149.02,V,1834.354310,N,07345.860539,E,000.00,000.00,010120,000.30,W,N*0a
$AOVEL,-000.00,+000.00,-000.00,+000.00,-000.00,-000.00*51
$AOATT,+001.36,-04.59,-021.56,+0.98,+0.00,-0.04,-0.19,01*4a
$AOGPS,0,0,00,27.75083670,125.56262440,4605.996,0.000,0.000,99.990*59
$AOSTS,5E0C7065,025000,22041084,20000000*51
$AOSEN,+00.0791,+00.0232,+00.9932,-0.0016,+0.0006,+0.0017,+0.0006,-0.0010,+0.0001*73
$GPGGA,101149.22,1834.354310,N,07345.860539,E,0,00,99.99,0086.79,M,,,,0000*38
$GPRMC,101149.22,V,1834.354310,N,07345.860539,E,000.00,000.00,010120,000.30,W,N*08
$AOVEL,-000.00,+000.00,-000.00,+000.00,-000.00,-000.00*51
$AOATT,+001.36,-04.58,-021.56,+0.98,+0.00,-0.04,-0.19,01*4b
$AOGPS,0,0,00,27.75097850,125.56296890,4606.039,0.000,0.000,99.990*55
$AOSTS,5E0C7065,225000,22041084,20000000*53
$AOSEN,+00.0795,+00.0238,+00.9940,-0.0019,+0.0011,+0.0018,-0.0000,-0.0005,-0.0005*78
$GPGGA,101149.42,1834.354310,N,07345.860539,E,0,00,99.99,0086.84,M,,,,0000*3c
$GPRMC,101149.42,V,1834.354310,N,07345.860539,E,000.00,000.00,010120,000.30,W,N*0e
$AOVEL,-000.00,+000.00,-000.00,+000.00,-000.00,-000.00*51
$AOATT,+001.37,-04.58,-021.56,+0.98,+0.00,-0.04,-0.19,01*4a
$AOGPS,0,0,00,27.75112030,125.56331330,4606.083,0.000,0.000,99.990*5b
$AOSTS,5E0C7065,425000,22041084,20000000*55
$AOSEN,+00.0795,+00.0239,+00.9939,-0.0010,+0.0002,+0.0020,+0.0006,-0.0004,+0.0002*77
$GPGGA,101149.62,1834.354310,N,07345.860539,E,0,00,99.99,0086.82,M,,,,0000*38
$GPRMC,101149.62,V,1834.354310,N,07345.860539,E,000.00,000.00,010120,000.30,W,N*0c
$AOVEL,-000.00,+000.00,-000.00,+000.00,-000.00,-000.00*51
$AOATT,+001.37,-04.59,-021.56,+0.98,+0.00,-0.04,-0.19,01*4b
$AOGPS,0,0,00,27.75126210,125.56365780,4606.126,0.000,0.000,99.990*5c
$AOSTS,5E0C7065,625000,22041084,20000000*57
$AOSEN,+00.0800,+00.0242,+00.9937,-0.0014,+0.0007,+0.0015,-0.0001,+0.0001,-0.0004*73
$GPGGA,101149.82,1834.354310,N,07345.860539,E,0,00,99.99,0086.74,M,,,,0000*3f
$GPRMC,101149.82,V,1834.354310,N,07345.860539,E,000.00,000.00,010120,000.30,W,N*02
$AOVEL,-000.00,+000.00,-000.00,+000.00,-000.00,-000.00*51
$AOATT,+001.37,-04.59,-021.56,+0.98,+0.00,-0.04,-0.19,01*4b
$AOGPS,0,0,00,27.75140390,125.56400220,4606.169,0.000,0.000,99.990*55
$AOSTS,5E0C7065,825000,22041084,20000000*59
$AOSEN,+00.0788,+00.0239,+00.9938,-0.0022,+0.0009,+0.0021,+0.0003,-0.0006,-0.0008*7a
$GPGGA,101150.02,1834.354310,N,07345.860539,E,0,03,02.42,0086.71,M,,,,0000*3d
$GPRMC,101150.02,V,1834.354310,N,07345.860539,E,000.00,000.00,010120,000.30,W,N*02
$AOVEL,-000.00,+000.00,-000.00,+000.00,-000.00,-000.00*51
$AOATT,+001.36,-04.59,-021.57,+0.98,+0.00,-0.04,-0.19,01*4b
$AOGPS,0,0,03,09.95618410,078.15100360,-95.000,0.111,0.000,2.610*40
$AOSTS,5E0C7066,025000,22041084,20000000*52
$AOSEN,+00.0796,+00.0240,+00.9939,-0.0015,+0.0001,+0.0019,-0.0004,+0.0004,-0.0003*73
$GPGGA,101150.22,1834.354310,N,07345.860539,E,0,03,02.42,0086.73,M,,,,0000*3d
$GPRMC,101150.22,V,1834.354310,N,07345.860539,E,000.00,000.00,010120,000.30,W,N*00
$AOVEL,-000.00,+000.00,-000.00,+000.00,-000.00,-000.00*51
$AOATT,+001.36,-04.58,-021.57,+0.98,+0.00,-0.04,-0.19,01*4a
$AOGPS,0,0,03,09.95619030,078.15101110,-96.066,0.115,0.000,2.610*44
$AOSTS,5E0C7066,225000,22041084,20000000*50
$AOSEN,+00.0793,+00.0238,+00.9934,-0.0020,+0.0009,+0.0025,+0.0002,-0.0003,-0.0001*76
$GPGGA,101150.42,1834.354310,N,07345.860539,E,0,03,02.42,0086.77,M,,,,0000*3f
$GPRMC,101150.42,V,1834.354310,N,07345.860539,E,000.00,000.00,010120,000.30,W,N*06
$AOVEL,-000.00,+000.00,-000.00,+000.00,-000.00,-000.00*51
$AOATT,+001.36,-04.59,-021.57,+0.98,+0.00,-0.04,-0.19,01*4b
$AOGPS,0,0,03,09.95619020,078.15101130,-95.695,0.112,0.000,2.610*49
$AOSTS,5E0C7066,425000,22041084,20000000*56	
$AOSEN,+00.0797,+00.0237,+00.9936,-0.0016,+0.0009,+0.0019,+0.0007,-0.0007,+0.0005*76
$GPGGA,101150.62,1834.354310,N,07345.860539,E,0,03,02.42,0086.80,M,,,,0000*35
$GPRMC,101150.62,V,1834.354310,N,07345.860539,E,000.00,000.00,010120,000.30,W,N*04
$AOVEL,-000.00,+000.00,-000.00,+000.00,-000.00,-000.00*51
$AOATT,+001.36,-04.58,-021.57,+0.98,+0.00,-0.04,-0.19,01*4a
$AOGPS,0,0,03,09.95618940,078.15101100,-95.528,0.051,0.000,2.620*44
$AOSTS,5E0C7066,625000,22041084,20000000*54
$AOSEN,+00.0796,+00.0235,+00.9938,-0.0016,-0.0003,+0.0024,+0.0012,-0.0001,+0.0004*7a
$GPGGA,101150.82,1834.354310,N,07345.860539,E,0,03,02.42,0086.78,M,,,,0000*3c
$GPRMC,101150.82,V,1834.354310,N,07345.860539,E,000.00,000.00,010120,000.30,W,N*0a
$AOVEL,-000.00,+000.00,-000.00,+000.00,-000.00,-000.00*51
$AOATT,+001.36,-04.58,-021.57,+0.98,+0.00,-0.04,-0.19,01*4a
$AOGPS,0,0,03,09.95618940,078.15101180,-95.488,0.097,0.000,2.620*4d
$AOSTS,5E0C7066,825000,22041084,20000000*5a
$AOSEN,+00.0802,+00.0241,+00.9947,-0.0005,-0.0009,+0.0020,+0.0003,+0.0009,+0.0000*75
$GPGGA,101151.02,1834.354310,N,07345.860539,E,0,03,02.42,0086.72,M,,,,0000*3f
$GPRMC,101151.02,V,1834.354310,N,07345.860539,E,000.00,000.00,010120,000.30,W,N*03
$AOVEL,-000.00,+000.00,-000.00,+000.00,-000.00,-000.00*51
$AOATT,+001.36,-04.58,-021.57,+0.98,+0.00,-0.04,-0.19,01*4a
$AOGPS,0,0,03,09.95618930,078.15101190,-95.389,0.090,0.000,2.620*4a
$AOSTS,5E0C7067,025000,22041084,20000000*53
$AOSEN,+00.0798,+00.0238,+00.9936,-0.0012,+0.0006,+0.0018,+0.0004,-0.0008,+0.0003*76
$GPGGA,101151.22,1834.354310,N,07345.860539,E,0,03,02.42,0086.69,M,,,,0000*37
$GPRMC,101151.22,V,1834.354310,N,07345.860539,E,000.00,000.00,010120,000.30,W,N*01
$AOVEL,-000.00,+000.00,+000.00,-000.00,+000.00,+000.00*51
$AOATT,+001.36,-04.58,-021.57,+0.98,+0.00,-0.04,-0.19,01*4a
$AOGPS,0,0,03,09.95618940,078.15101270,-95.558,0.088,0.000,2.620*43
$AOSTS,5E0C7067,225000,22041084,20000000*51
$AOSEN,+00.0799,+00.0235,+00.9942,-0.0022,-0.0000,+0.0024,-0.0005,-0.0002,-0.0003*7e
$GPGGA,101151.42,1834.354310,N,07345.860539,E,0,03,02.42,0086.69,M,,,,0000*31
$GPRMC,101151.42,V,1834.354310,N,07345.860539,E,000.00,000.00,010120,000.30,W,N*07
$AOVEL,-000.00,+000.00,+000.00,-000.00,+000.00,+000.00*51
$AOATT,+001.36,-04.59,-021.57,+0.98,+0.00,-0.04,-0.19,01*4b
$AOGPS,0,0,03,09.95618790,078.15101150,-95.133,0.104,0.000,2.620*4d
$AOSTS,5E0C7067,425000,22041084,20000000*57
$AOSEN,+00.0798,+00.0236,+00.9940,-0.0015,-0.0005,+0.0021,-0.0004,-0.0003,+0.0002*7d
$GPGGA,101151.62,1834.354310,N,07345.860539,E,0,03,02.42,0086.71,M,,,,0000*3a
$GPRMC,101151.62,V,1834.354310,N,07345.860539,E,000.00,000.00,010120,000.30,W,N*05
$AOVEL,-000.00,+000.00,+000.00,-000.00,+000.00,+000.00*51
$AOATT,+001.36,-04.59,-021.57,+0.98,+0.00,-0.04,-0.19,01*4b
$AOGPS,0,0,03,09.95618770,078.15101160,-95.322,0.092,0.000,2.620*4c
$AOSTS,5E0C7067,625000,22041084,20000000*55
$AOSEN,+00.0795,+00.0236,+00.9939,-0.0013,+0.0004,+0.0019,+0.0008,+0.0004,-0.0004*7f
$GPGGA,101151.82,1834.354310,N,07345.860539,E,0,03,02.42,0086.73,M,,,,0000*36
$GPRMC,101151.82,V,1834.354310,N,07345.860539,E,000.00,000.00,010120,000.30,W,N*0b
$AOVEL,-000.00,+000.00,+000.00,-000.00,+000.00,+000.00*51
$AOATT,+001.36,-04.59,-021.57,+0.98,+0.00,-0.04,-0.19,01*4b
$AOGPS,0,0,03,09.95618770,078.15101230,-95.417,0.091,0.000,2.620*48
$AOSTS,5E0C7067,825000,22041084,20000000*5b
$AOSEN,+00.0800,+00.0234,+00.9944,-0.0007,-0.0003,+0.0021,-0.0000,+0.0009,-0.0002*7e
$GPGGA,101152.02,1834.354310,N,07345.860539,E,0,03,02.42,0086.77,M,,,,0000*39
$GPRMC,101152.02,V,1834.354310,N,07345.860539,E,000.00,000.00,010120,000.30,W,N*00
$AOVEL,-000.00,+000.00,-000.00,+000.00,-000.00,-000.00*51
$AOATT,+001.36,-04.58,-021.57,+0.98,+0.00,-0.04,-0.19,01*4a
$AOGPS,0,0,03,09.95618790,078.15101310,-95.441,0.098,0.000,2.620*4f
$AOSTS,5E0C7068,025000,22041084,20000000*5c
$AOSEN,+00.0802,+00.0239,+00.9943,-0.0015,+0.0014,+0.0020,-0.0009,+0.0007,+0.0001*76
$GPGGA,101152.22,1834.354310,N,07345.860539,E,0,03,02.42,0086.78,M,,,,0000*34
$GPRMC,101152.22,V,1834.354310,N,07345.860539,E,000.00,000.00,010120,000.30,W,N*02
$AOVEL,-000.00,+000.00,-000.00,+000.00,-000.00,-000.00*51
$AOATT,+001.36,-04.59,-021.57,+0.98,+0.00,-0.04,-0.19,01*4b
$AOGPS,0,0,03,09.95618770,078.15101350,-95.485,0.081,0.000,2.620*45
$AOSTS,5E0C7068,225000,22041084,20000000*5e
$AOSEN,+00.0797,+00.0235,+00.9943,-0.0011,-0.0001,+0.0023,-0.0000,+0.0005,-0.0001*71
$GPGGA,101152.42,1834.354310,N,07345.860539,E,0,03,02.42,0086.74,M,,,,0000*3e
$GPRMC,101152.42,V,1834.354310,N,07345.860539,E,000.00,000.00,010120,000.30,W,N*04
$AOVEL,-000.00,+000.00,+000.00,-000.00,+000.00,+000.00*51
$AOATT,+001.36,-04.58,-021.57,+0.98,+0.00,-0.04,-0.19,01*4a
$AOGPS,0,0,03,09.95618790,078.15101390,-95.388,0.072,0.000,2.620*41
$AOSTS,5E0C7068,425000,22041084,20000000*58
$AOSEN,+00.0799,+00.0234,+00.9942,-0.0013,+0.0001,+0.0020,-0.0020,+0.0004,+0.0002*7e
$GPGGA,101152.62,1834.354310,N,07345.860539,E,0,03,02.42,0086.69,M,,,,0000*30
$GPRMC,101152.62,V,1834.354310,N,07345.860539,E,000.00,000.00,010120,000.30,W,N*06
$AOVEL,-000.00,+000.00,+000.00,-000.00,+000.00,+000.00*51
$AOATT,+001.36,-04.58,-021.57,+0.98,+0.00,-0.04,-0.19,01*4a
$AOGPS,0,0,03,09.95618810,078.15101420,-95.233,0.038,0.000,2.620*45
$AOSTS,5E0C7068,625000,22041084,20000000*5a
$AOSEN,+00.0801,+00.0236,+00.9936,-0.0011,-0.0000,+0.0021,+0.0001,-0.0004,+0.0000*74
$GPGGA,094903.11,1834.354310,N,07345.860539,E,0,03,02.42,0086.67,M,,,,0000*3b
$GPRMC,094903.11,V,1834.354310,N,07345.860539,E,000.00,000.00,110822,000.30,W,N*09
$AOVEL,-000.00,+000.00,+000.00,-000.00,+000.00,+000.00*51
$AOATT,+001.36,-04.59,-021.57,+0.98,+0.00,-0.04,-0.19,01*4b
$AOGPS,0,0,03,09.95618840,078.15101490,-95.368,0.020,0.000,2.620*4d
$AOSTS,62F4D08F,110000,22041084,20000000*2d
$AOSEN,+00.0795,+00.0235,+00.9937,-0.0012,-0.0009,+0.0019,+0.0013,-0.0011,-0.0004*70
$GPGGA,094903.31,1834.354310,N,07345.860539,E,0,03,02.42,0086.71,M,,,,0000*3e
$GPRMC,094903.31,V,1834.354310,N,07345.860539,E,000.00,000.00,110822,000.30,W,N*0b
$AOVEL,-000.00,+000.00,+000.00,-000.00,+000.00,+000.00*51
$AOATT,+001.36,-04.59,-021.58,+0.98,+0.00,-0.04,-0.19,01*44
$AOGPS,0,0,03,09.95618860,078.15101530,-95.313,0.043,0.000,2.620*4d
$AOSTS,62F4D08F,310000,22041084,20000000*2f
$AOSEN,+00.0796,+00.0237,+00.9944,-0.0027,-0.0004,+0.0020,+0.0002,-0.0004,-0.0006*72
$GPGGA,094903.51,1834.354310,N,07345.860539,E,0,03,02.42,0086.74,M,,,,0000*3d
$GPRMC,094903.51,V,1834.354310,N,07345.860539,E,000.00,000.00,110822,000.30,W,N*0d
$AOVEL,-000.00,+000.00,-000.00,+000.00,-000.00,-000.00*51
$AOATT,+001.36,-04.59,-021.58,+0.98,+0.00,-0.04,-0.19,01*44
$AOGPS,0,0,03,09.95618870,078.15101560,-95.420,0.063,0.000,2.620*4c
$AOSTS,62F4D08F,510000,22041084,20000000*29
$AOSEN,+00.0799,+00.0241,+00.9940,-0.0019,+0.0008,+0.0020,-0.0013,+0.0006,-0.0003*78
$GPGGA,094903.71,0957.371364,N,07809.060984,E,1,03,02.42,-095.58,M,,,,0000*2f
$GPRMC,094903.71,A,0957.371364,N,07809.060984,E,000.01,000.00,110822,000.30,W,A*16
$AOVEL,-000.01,+000.00,+000.00,-000.00,+000.01,+000.00*51
$AOATT,+001.36,-04.59,-021.58,+0.98,+0.00,-0.04,-0.19,01*44
$AOGPS,1,1,03,09.95618940,078.15101640,-95.581,0.081,0.000,2.620*49
$AOSTS,62F4D08F,710000,20411021,20030000*24
$AOSEN,+00.0801,+00.0235,+00.9940,-0.0012,-0.0008,+0.0020,+0.0011,-0.0002,+0.0000*7b
$GPGGA,094903.91,0957.371371,N,07809.061008,E,1,03,02.42,-095.58,M,,,,0000*29
$GPRMC,094903.91,A,0957.371371,N,07809.061008,E,000.10,000.00,110822,000.30,W,A*10
$AOVEL,-000.00,-000.05,+000.00,-000.02,-000.05,+000.00*53
$AOATT,+001.36,-04.59,-021.58,+0.98,+0.00,-0.04,-0.19,01*44
$AOGPS,1,1,03,09.95618960,078.15101710,-95.510,0.100,0.000,2.620*4f
$AOSTS,62F4D08F,910000,20411021,20030000*2a
$AOSEN,+00.0797,+00.0240,+00.9944,-0.0017,+0.0002,+0.0018,-0.0005,+0.0004,-0.0001*7b
$GPGGA,094904.11,0957.371379,N,07809.061031,E,1,03,02.42,-095.56,M,,,,0000*2a
$GPRMC,094904.11,A,0957.371379,N,07809.061031,E,000.03,000.00,110822,000.30,W,A*1f
$AOVEL,-000.01,-000.01,+000.00,-000.02,-000.00,+000.00*53
$AOATT,+001.36,-04.59,-021.58,+0.98,+0.00,-0.04,-0.19,01*44
$AOGPS,1,1,03,09.95618980,078.15101750,-95.255,0.093,0.000,2.620*48
$AOSTS,62F4D090,110000,20411021,20030000*55
$AOSEN,+00.0798,+00.0241,+00.9942,-0.0018,-0.0001,+0.0026,-0.0016,+0.0001,+0.0004*70
$GPGGA,094904.31,0957.371393,N,07809.061057,E,1,03,02.42,-095.53,M,,,,0000*29
$GPRMC,094904.31,A,0957.371393,N,07809.061057,E,000.02,000.00,110822,000.30,W,A*18
$AOVEL,-000.01,-000.00,+000.00,-000.01,+000.00,+000.00*57
$AOATT,+001.36,-04.59,-021.58,+0.98,+0.00,-0.04,-0.19,01*44
$AOGPS,1,1,03,09.95619020,078.15101810,-95.296,0.088,0.000,2.620*44
$AOSTS,62F4D090,310000,20411021,20030000*57
$AOSEN,+00.0801,+00.0236,+00.9942,-0.0025,-0.0001,+0.0020,-0.0009,+0.0001,-0.0002*79
$GPGGA,094904.51,0957.371402,N,07809.061069,E,1,03,02.42,-095.47,M,,,,0000*28
$GPRMC,094904.51,A,0957.371402,N,07809.061069,E,000.00,000.00,110822,000.30,W,A*1e
$AOVEL,-000.00,-000.00,+000.00,-000.00,+000.00,+000.00*57
$AOATT,+001.36,-04.59,-021.58,+0.98,+0.00,-0.04,-0.19,01*44
$AOGPS,1,1,03,09.95619020,078.15101800,-94.921,0.062,0.000,2.620*47
$AOSTS,62F4D090,510000,20411021,20030000*51
$AOSEN,+00.0800,+00.0235,+00.9938,-0.0018,+0.0001,+0.0021,-0.0002,+0.0001,-0.0003*75
$GPGGA,094904.71,0957.371403,N,07809.061073,E,1,03,02.42,-095.40,M,,,,0000*27
$GPRMC,094904.71,A,0957.371403,N,07809.061073,E,000.00,000.00,110822,000.30,W,A*16
$AOVEL,-000.00,+000.00,+000.00,-000.00,+000.00,+000.00*51
$AOATT,+001.36,-04.59,-021.58,+0.98,+0.00,-0.04,-0.19,01*44
$AOGPS,1,1,03,09.95619000,078.15101800,-94.950,0.036,0.000,2.620*42
$AOSTS,62F4D090,710000,20411021,20030000*53
$AOSEN,+00.0797,+00.0233,+00.9940,-0.0028,-0.0002,+0.0025,-0.0000,+0.0003,-0.0001*7d
$GPGGA,094904.91,0957.371403,N,07809.061076,E,1,03,02.42,-095.33,M,,,,0000*28
$GPRMC,094904.91,A,0957.371403,N,07809.061076,E,000.00,000.00,110822,000.30,W,A*1d
$AOVEL,-000.00,+000.00,+000.00,-000.00,+000.00,+000.00*51
$AOATT,+001.36,-04.59,-021.58,+0.98,+0.00,-0.04,-0.19,01*44
$AOGPS,1,1,03,09.95619010,078.15101810,-94.981,0.012,0.000,2.620*48
$AOSTS,62F4D090,910000,20411021,20030000*5d
$AOSEN,+00.0798,+00.0232,+00.9939,-0.0017,+0.0006,+0.0020,+0.0001,+0.0000,+0.0001*74
$GPGGA,094905.11,0957.371403,N,07809.061080,E,1,03,02.42,-095.29,M,,,,0000*23
$GPRMC,094905.11,A,0957.371403,N,07809.061080,E,000.00,000.00,110822,000.30,W,A*1d
$AOVEL,+000.00,+000.00,+000.00,+000.00,+000.00,+000.00*51
$AOATT,+001.36,-04.59,-021.58,+0.98,+0.00,-0.04,-0.19,01*44
$AOGPS,1,1,03,09.95619000,078.15101820,-95.201,0.013,0.000,2.620*49
$AOSTS,62F4D091,110000,20411021,20030000*54
$AOSEN,+00.0800,+00.0232,+00.9941,-0.0021,-0.0000,+0.0020,-0.0004,-0.0001,-0.0002*71
$GPGGA,094905.31,0957.371401,N,07809.061082,E,1,03,02.42,-095.27,M,,,,0000*2f
$GPRMC,094905.31,A,0957.371401,N,07809.061082,E,000.00,000.00,110822,000.30,W,A*1f
$AOVEL,-000.00,-000.00,+000.00,-000.00,-000.00,+000.00*51
$AOATT,+001.36,-04.58,-021.58,+0.98,+0.00,-0.04,-0.19,01*45
$AOGPS,1,1,03,09.95618980,078.15101820,-95.082,0.023,0.000,2.620*43
$AOSTS,62F4D091,310000,20411021,20030000*56
$AOSEN,+00.0800,+00.0236,+00.9939,-0.0016,+0.0001,+0.0020,-0.0008,+0.0011,-0.0002*72
$GPGGA,094905.51,0957.371399,N,07809.061086,E,1,03,02.42,-095.26,M,,,,0000*2a
$GPRMC,094905.51,A,0957.371399,N,07809.061086,E,000.00,000.00,110822,000.30,W,A*1b
$AOVEL,-000.00,-000.00,+000.00,-000.00,-000.00,+000.00*51
$AOATT,+001.36,-04.58,-021.58,+0.98,+0.00,-0.04,-0.19,01*45
$AOGPS,1,1,03,09.95618990,078.15101860,-95.312,0.004,0.000,2.620*49
$AOSTS,62F4D091,510000,20411021,20030000*50
$AOSEN,+00.0790,+00.0233,+00.9935,-0.0026,+0.0006,+0.0020,+0.0003,-0.0014,+0.0001*72
$GPGGA,094905.71,0957.371398,N,07809.061093,E,1,03,02.42,-095.29,M,,,,0000*22
$GPRMC,094905.71,A,0957.371398,N,07809.061093,E,000.00,000.00,110822,000.30,W,A*1c
$AOVEL,+000.00,-000.00,+000.00,-000.00,-000.00,+000.00*57
$AOATT,+001.36,-04.59,-021.58,+0.98,+0.00,-0.04,-0.19,01*44
$AOGPS,1,1,03,09.95618980,078.15101890,-95.478,0.015,0.000,2.620*4c
$AOSTS,62F4D091,710000,20411021,20030000*52
$AOSEN,+00.0794,+00.0234,+00.9939,-0.0020,+0.0007,+0.0021,+0.0004,-0.0004,-0.0001*7b
$GPGGA,094905.91,0957.371396,N,07809.061099,E,1,03,02.42,-095.32,M,,,,0000*22
$GPRMC,094905.91,A,0957.371396,N,07809.061099,E,000.00,000.00,110822,000.30,W,A*16
$AOVEL,-000.00,+000.00,+000.00,-000.00,+000.00,+000.00*51
$AOATT,+001.36,-04.59,-021.58,+0.98,+0.00,-0.04,-0.19,01*44
$AOGPS,1,1,03,09.95618980,078.15101920,-95.509,0.027,0.000,2.620*40
$AOSTS,62F4D091,910000,20411021,20030000*5c
$AOSEN,+00.0807,+00.0232,+00.9937,-0.0030,+0.0009,+0.0022,-0.0002,-0.0002,-0.0006*7b
$GPGGA,094906.11,0957.371397,N,07809.061108,E,1,03,02.42,-095.37,M,,,,0000*24
$GPRMC,094906.11,A,0957.371397,N,07809.061108,E,000.00,000.00,110822,000.30,W,A*15
$AOVEL,-000.00,+000.00,+000.00,+000.00,+000.00,+000.00*57
$AOATT,+001.35,-04.59,-021.58,+0.98,+0.00,-0.04,-0.19,01*47
$AOGPS,1,1,03,09.95619010,078.15101970,-95.680,0.020,0.000,2.620*41
$AOSTS,62F4D092,110000,20411021,20030000*57
$AOSEN,+00.0800,+00.0232,+00.9940,-0.0016,-0.0004,+0.0021,+0.0001,-0.0001,+0.0002*74
$GPGGA,094906.31,0957.371398,N,07809.061118,E,1,03,02.42,-095.43,M,,,,0000*2b
$GPRMC,094906.31,A,0957.371398,N,07809.061118,E,000.00,000.00,110822,000.30,W,A*19
$AOVEL,-000.00,-000.00,+000.00,-000.00,-000.00,+000.00*51
$AOATT,+001.35,-04.59,-021.58,+0.98,+0.00,-0.04,-0.19,01*47
$AOGPS,1,1,03,09.95619020,078.15102010,-95.674,0.016,0.000,2.620*40
$AOSTS,62F4D092,310000,20411021,20030000*55
$AOSEN,+00.0797,+00.0234,+00.9936,-0.0015,+0.0001,+0.0020,+0.0005,-0.0005,+0.0001*70
$GPGGA,094906.51,0957.371400,N,07809.061128,E,1,03,02.42,-095.47,M,,,,0000*2c
$GPRMC,094906.51,A,0957.371400,N,07809.061128,E,000.00,000.00,110822,000.30,W,A*1a
$AOVEL,+000.00,-000.00,+000.00,+000.00,-000.00,+000.00*51
$AOATT,+001.35,-04.59,-021.58,+0.98,+0.00,-0.04,-0.19,01*47
$AOGPS,1,1,03,09.95619030,078.15102050,-95.692,0.029,0.000,2.620*41
$AOSTS,62F4D092,510000,20411021,20030000*53
$AOSEN,+00.0794,+00.0235,+00.9937,-0.0018,+0.0006,+0.0018,+0.0002,-0.0008,+0.0002*7b
$GPGGA,094906.71,0957.371402,N,07809.061140,E,1,03,02.42,-095.48,M,,,,0000*2d
$GPRMC,094906.71,A,0957.371402,N,07809.061140,E,000.00,000.00,110822,000.30,W,A*14
$AOVEL,+000.00,-000.00,+000.00,-000.00,-000.00,+000.00*57
$AOATT,+001.36,-04.59,-021.58,+0.98,+0.00,-0.04,-0.19,01*44
$AOGPS,1,1,03,09.95619050,078.15102090,-95.348,0.026,0.000,2.620*46
$AOSTS,62F4D092,710000,20411021,20030000*51
$AOSEN,+00.0802,+00.0237,+00.9938,-0.0008,-0.0004,+0.0021,-0.0001,-0.0000,+0.0002*74
$GPGGA,094906.91,0957.371406,N,07809.061152,E,1,03,02.42,-095.47,M,,,,0000*2b
$GPRMC,094906.91,A,0957.371406,N,07809.061152,E,000.00,000.00,110822,000.30,W,A*1d
$AOVEL,-000.00,-000.00,+000.00,-000.00,-000.00,+000.00*51
$AOATT,+001.36,-04.59,-021.58,+0.98,+0.00,-0.04,-0.19,01*44
$AOGPS,1,1,03,09.95619070,078.15102120,-95.533,0.054,0.000,2.620*41
$AOSTS,62F4D092,910000,20411021,20030000*5f
$AOSEN,+00.0800,+00.0239,+00.9940,-0.0018,+0.0008,+0.0020,-0.0003,+0.0007,-0.0005*7f
$GPGGA,094907.11,0957.371409,N,07809.061164,E,1,03,02.42,-095.50,M,,,,0000*2e
$GPRMC,094907.11,A,0957.371409,N,07809.061164,E,000.00,000.00,110822,000.30,W,A*1e
$AOVEL,+000.00,-000.00,+000.00,-000.00,-000.00,+000.00*57
$AOATT,+001.36,-04.59,-021.58,+0.98,+0.00,-0.04,-0.19,01*44
$AOGPS,1,1,03,09.95619080,078.15102160,-95.704,0.019,0.000,2.620*45
$AOSTS,62F4D093,110000,20411021,20030000*56
$AOSEN,+00.0797,+00.0239,+00.9943,-0.0009,+0.0001,+0.0021,+0.0002,+0.0006,-0.0005*73
$GPGGA,094907.31,0957.371411,N,07809.061168,E,1,03,02.42,-095.54,M,,,,0000*2d
$GPRMC,094907.31,A,0957.371411,N,07809.061168,E,000.00,000.30,110822,000.30,W,A*1a
$AOVEL,+000.00,-000.00,+000.00,+000.00,-000.00,+000.00*51
$AOATT,+001.36,-04.59,-021.58,+0.98,+0.00,-0.04,-0.19,01*44
$AOGPS,1,1,03,09.95619080,078.15102200,-95.752,0.063,0.000,2.620*4e
$AOSTS,62F4D093,310000,20411021,20030000*54
$AOSEN,+00.0801,+00.0241,+00.9939,-0.0012,+0.0000,+0.0020,-0.0007,+0.0000,-0.0002*79
$GPGGA,094907.51,0957.371411,N,07809.061168,E,1,03,02.42,-095.58,M,,,,0000*27
$GPRMC,094907.51,A,0957.371411,N,07809.061168,E,000.00,000.30,110822,000.30,W,A*1c
$AOVEL,-000.00,-000.00,+000.00,-000.00,-000.00,+000.00*51
$AOATT,+001.36,-04.59,-021.58,+0.98,+0.00,-0.04,-0.19,01*44
$AOGPS,1,1,03,09.95619090,078.15102220,-95.744,0.071,0.000,2.620*49
$AOSTS,62F4D093,510000,20411021,20030000*52
$AOSEN,+00.0797,+00.0235,+00.9940,-0.0017,+0.0007,+0.0022,+0.0006,-0.0004,+0.0003*76
$GPGGA,094907.71,0957.371411,N,07809.061168,E,1,03,02.42,-095.59,M,,,,0000*24
$GPRMC,094907.71,A,0957.371411,N,07809.061168,E,000.00,000.30,110822,000.30,W,A*1e
$AOVEL,+000.00,-000.00,+000.00,-000.00,-000.00,+000.00*57
$AOATT,+001.36,-04.59,-021.58,+0.98,+0.00,-0.04,-0.19,01*44
$AOGPS,1,1,03,09.95619110,078.15102250,-95.580,0.050,0.000,2.620*4e
$AOSTS,62F4D093,710000,20411021,20030000*50
$AOSEN,+00.0797,+00.0238,+00.9944,-0.0020,-0.0014,+0.0019,-0.0007,-0.0002,-0.0000*73
$GPGGA,094907.91,0957.371411,N,07809.061168,E,1,03,02.42,-095.61,M,,,,0000*21
$GPRMC,094907.91,A,0957.371411,N,07809.061168,E,000.00,000.30,110822,000.30,W,A*10
$AOVEL,+000.00,-000.00,+000.00,+000.00,-000.00,+000.00*51
$AOATT,+001.35,-04.59,-021.58,+0.98,+0.00,-0.04,-0.19,01*47
$AOGPS,1,1,03,09.95619110,078.15102280,-95.817,0.038,0.000,2.620*4e
$AOSTS,62F4D093,910000,20411021,20030000*5e
$AOSEN,+00.0796,+00.0237,+00.9944,-0.0021,+0.0003,+0.0016,-0.0013,+0.0008,-0.0004*7e
$GPGGA,094908.11,0957.371411,N,07809.061168,E,1,03,02.42,-095.66,M,,,,0000*21
$GPRMC,094908.11,A,0957.371411,N,07809.061168,E,000.00,000.30,110822,000.30,W,A*17
$AOVEL,+000.00,+000.00,+000.00,+000.00,+000.00,+000.00*51
$AOATT,+001.35,-04.59,-021.59,+0.98,+0.00,-0.04,-0.19,01*46
$AOGPS,1,1,03,09.95619110,078.15102290,-95.907,0.029,0.000,2.620*4f
$AOSTS,62F4D094,110000,20411021,20030000*51
$AOSEN,+00.0790,+00.0228,+00.9938,-0.0025,+0.0002,+0.0024,-0.0005,-0.0001,+0.0002*71
$GPGGA,094908.31,0957.371411,N,07809.061168,E,1,03,02.42,-095.69,M,,,,0000*2c
$GPRMC,094908.31,A,0957.371411,N,07809.061168,E,000.00,000.30,110822,000.30,W,A*15
$AOVEL,-000.00,+000.00,+000.00,-000.00,+000.00,+000.00*51
$AOATT,+001.36,-04.59,-021.59,+0.98,+0.00,-0.04,-0.19,01*45
$AOGPS,1,1,03,09.95619130,078.15102320,-95.726,0.075,0.000,2.620*43
$AOSTS,62F4D094,310000,20411021,20030000*53
$AOSEN,+00.0791,+00.0224,+00.9945,-0.0010,+0.0016,+0.0019,+0.0003,-0.0004,-0.0005*7f
$GPGGA,094908.51,0957.371411,N,07809.061168,E,1,03,02.42,-095.68,M,,,,0000*2b
$GPRMC,094908.51,A,0957.371411,N,07809.061168,E,000.00,000.30,110822,000.30,W,A*13
$AOVEL,-000.00,+000.00,+000.00,+000.00,+000.00,+000.00*57
$AOATT,+001.36,-04.59,-021.59,+0.98,+0.00,-0.04,-0.19,01*45
$AOGPS,1,1,03,09.95619140,078.15102340,-95.647,0.067,0.000,2.620*47
$AOSTS,62F4D094,510000,20411021,20030000*55
$AOSEN,+00.0806,+00.0222,+00.9955,+0.0001,-0.0017,+0.0023,+0.0005,+0.0028,+0.0004*78
$GPGGA,094908.71,0957.371411,N,07809.061168,E,1,03,02.42,-095.69,M,,,,0000*28
$GPRMC,094908.71,A,0957.371411,N,07809.061168,E,000.00,000.30,110822,000.30,W,A*11
$AOVEL,-000.00,+000.00,+000.00,+000.00,+000.00,+000.00*57
$AOATT,+001.35,-04.59,-021.58,+0.98,+0.00,-0.04,-0.19,01*47
$AOGPS,1,1,03,09.95619150,078.15102350,-95.747,0.063,0.000,2.620*42
$AOSTS,62F4D094,710000,20411021,20030000*57
$AOSEN,+00.0794,+00.0222,+00.9938,-0.0013,+0.0005,+0.0022,-0.0008,-0.0019,+0.0005*78
$GPGGA,094908.91,0957.371413,N,07809.061170,E,1,03,02.42,-095.71,M,,,,0000*24
$GPRMC,094908.91,A,0957.371413,N,07809.061170,E,000.21,000.30,110822,000.30,W,A*17
$AOVEL,+000.06,+000.09,-000.01,+000.09,+000.06,+000.00*56
$AOATT,+001.35,-04.58,-021.58,+0.98,+0.00,-0.04,-0.19,01*46
$AOGPS,1,1,03,09.95619160,078.15102370,-95.879,0.136,0.000,2.620*40
$AOSTS,62F4D094,910000,20411021,20030000*59
$AOSEN,+00.0799,+00.0224,+00.9940,-0.0005,-0.0001,+0.0017,+0.0011,+0.0002,+0.0002*7a
$GPGGA,094909.11,0957.371424,N,07809.061176,E,1,03,02.42,-095.74,M,,,,0000*2a
$GPRMC,094909.11,A,0957.371424,N,07809.061176,E,000.21,000.30,110822,000.30,W,A*1c
$AOVEL,+000.08,+000.07,-000.01,+000.10,+000.03,+000.00*5b
$AOATT,+001.36,-04.59,-021.58,+0.98,+0.00,-0.04,-0.19,01*44
$AOGPS,1,1,03,09.95619180,078.15102390,-95.842,0.102,0.000,2.620*4f
$AOSTS,62F4D095,110000,20411021,20030000*50
$AOSEN,+00.0794,+00.0232,+00.9946,+0.0013,-0.0003,+0.0022,-0.0003,-0.0014,+0.0002*77
$GPGGA,094909.31,0957.371435,N,07809.061180,E,1,03,02.42,-095.76,M,,,,0000*23
$GPRMC,094909.31,A,0957.371435,N,07809.061180,E,000.24,000.30,110822,000.30,W,A*12
$AOVEL,+000.09,+000.08,-000.01,+000.11,+000.05,+000.00*52
$AOATT,+001.35,-04.59,-021.58,+0.98,+0.00,-0.04,-0.19,01*47
$AOGPS,1,1,03,09.95619200,078.15102410,-95.872,0.129,0.000,2.620*41
$AOSTS,62F4D095,310000,20411021,20030000*52
$AOSEN,+00.0795,+00.0239,+00.9937,-0.0050,+0.0028,+0.0025,-0.0023,-0.0004,+0.0002*71
$GPGGA,094909.51,0957.371448,N,07809.061186,E,1,03,02.42,-095.77,M,,,,0000*28
$GPRMC,094909.51,A,0957.371448,N,07809.061186,E,000.25,000.30,110822,000.30,W,A*19
$AOVEL,+000.08,+000.10,-000.01,+000.11,+000.06,+000.00*59
$AOATT,+001.35,-04.59,-021.58,+0.98,+0.00,-0.04,-0.19,01*47
$AOGPS,1,1,03,09.95619210,078.15102430,-95.737,0.128,0.000,2.620*4d
$AOSTS,62F4D095,510000,20411021,20030000*54
$AOSEN,+00.0791,+00.0243,+00.9929,-0.0019,+0.0006,+0.0018,-0.0005,-0.0028,-0.0000*76
$GPGGA,094909.71,0957.371458,N,07809.061191,E,1,03,02.42,-095.76,M,,,,0000*2c
$GPRMC,094909.71,A,0957.371458,N,07809.061191,E,000.05,000.30,110822,000.30,W,A*1e
$AOVEL,+000.02,+000.02,-000.00,+000.03,+000.01,-000.00*53
$AOATT,+001.36,-04.60,-021.59,+0.98,+0.00,-0.04,-0.19,01*4f
$AOGPS,1,1,03,09.95619220,078.15102440,-95.759,0.077,0.000,2.620*4a
$AOSTS,62F4D095,710000,20411021,20030000*56
$AOSEN,+00.0779,+00.0232,+00.9928,+0.0002,-0.0024,+0.0021,+0.0027,-0.0025,-0.0002*7e
$GPGGA,094909.91,0957.371459,N,07809.061191,E,1,03,02.42,-095.77,M,,,,0000*22
$GPRMC,094909.91,A,0957.371459,N,07809.061191,E,000.00,000.30,110822,000.30,W,A*14
$AOVEL,+000.00,+000.00,-000.00,+000.00,-000.00,+000.00*51
$AOATT,+001.36,-04.60,-021.59,+0.98,+0.00,-0.04,-0.19,01*4f
$AOGPS,1,1,03,09.95619230,078.15102450,-95.861,0.061,0.000,2.620*49
$AOSTS,62F4D095,910000,20411021,20030000*58
$AOSEN,+00.0781,+00.0227,+00.9889,-0.0046,+0.0026,+0.0022,+0.0034,-0.0052,-0.0007*71
$GPGGA,094910.11,0957.371461,N,07809.061192,E,1,03,02.42,-095.78,M,,,,0000*25
$GPRMC,094910.11,A,0957.371461,N,07809.061192,E,000.18,000.30,110822,000.30,W,A*15
$AOVEL,+000.07,+000.06,-000.01,+000.09,+000.03,+000.00*5d
$AOATT,+001.35,-04.60,-021.59,+0.98,+0.00,-0.04,-0.19,01*4c
$AOGPS,1,1,03,09.95619260,078.15102470,-95.806,0.117,0.000,2.620*4f
$AOSTS,62F4D096,110000,20411021,20030000*53
$AOSEN,+00.0800,+00.0234,+00.9935,-0.0013,+0.0016,+0.0025,-0.0000,+0.0001,-0.0002*73
$GPGGA,094910.31,0957.371469,N,07809.061194,E,1,03,02.42,-095.80,M,,,,0000*2e
$GPRMC,094910.31,A,0957.371469,N,07809.061194,E,000.03,000.59,110822,000.30,W,A*1c
$AOVEL,+000.02,+000.01,-000.00,+000.02,+000.00,+000.00*56
$AOATT,+001.36,-04.60,-021.58,+0.98,+0.00,-0.04,-0.19,01*4e
$AOGPS,1,1,03,09.95619280,078.15102480,-95.927,0.063,0.000,2.620*4e
$AOSTS,62F4D096,310000,20411021,20030000*51
$AOSEN,+00.0803,+00.0235,+00.9932,-0.0008,-0.0000,+0.0019,+0.0001,+0.0002,-0.0002*76
$GPGGA,094910.51,0957.371470,N,07809.061194,E,1,03,02.42,-095.81,M,,,,0000*21
$GPRMC,094910.51,A,0957.371470,N,07809.061194,E,000.00,000.59,110822,000.30,W,A*11
$AOVEL,+000.00,+000.00,-000.00,+000.00,-000.00,+000.00*51
$AOATT,+001.36,-04.59,-021.59,+0.98,+0.00,-0.04,-0.19,01*45
$AOGPS,1,1,03,09.95619290,078.15102490,-95.807,0.008,0.000,2.620*40
$AOSTS,62F4D096,510000,20411021,20030000*57
$AOSEN,+00.0807,+00.0245,+00.9931,-0.0020,+0.0005,+0.0017,-0.0001,+0.0006,-0.0003*72
$GPGGA,094910.71,0957.371470,N,07809.061194,E,1,03,02.42,-095.79,M,,,,0000*24
$GPRMC,094910.71,A,0957.371470,N,07809.061194,E,000.00,000.59,110822,000.30,W,A*13
$AOVEL,+000.00,-000.00,+000.00,+000.00,-000.00,+000.00*51
$AOATT,+001.35,-04.59,-021.59,+0.98,+0.00,-0.04,-0.19,01*46
$AOGPS,1,1,03,09.95619300,078.15102500,-95.605,0.033,0.000,2.620*44
$AOSTS,62F4D096,710000,20411021,20030000*55
$AOSEN,+00.0798,+00.0240,+00.9958,-0.0019,+0.0014,+0.0022,+0.0004,+0.0006,+0.0001*7a
$GPGGA,094910.91,0957.371470,N,07809.061194,E,1,03,02.42,-095.78,M,,,,0000*2b
$GPRMC,094910.91,A,0957.371470,N,07809.061194,E,000.00,000.59,110822,000.30,W,A*1d
$AOVEL,+000.00,-000.00,-000.00,-000.00,-000.00,-000.00*57
$AOATT,+001.36,-04.60,-021.59,+0.98,+0.00,-0.04,-0.19,01*4f
$AOGPS,1,1,03,09.95619330,078.15102520,-95.809,0.014,0.000,2.620*42
$AOSTS,62F4D096,910000,20411021,20030000*5b
$AOSEN,+00.0798,+00.0232,+00.9939,-0.0010,-0.0006,+0.0021,+0.0006,-0.0001,+0.0001*74
$GPGGA,094911.11,0957.371470,N,07809.061194,E,1,03,02.42,-095.78,M,,,,0000*22
$GPRMC,094911.11,A,0957.371470,N,07809.061194,E,000.00,000.59,110822,000.30,W,A*14
$AOVEL,+000.00,-000.00,+000.00,+000.00,-000.00,+000.00*51
$AOATT,+001.36,-04.60,-021.59,+0.98,+0.00,-0.04,-0.19,01*4f
$AOGPS,1,1,03,09.95619360,078.15102530,-95.783,0.047,0.000,2.620*4d
$AOSTS,62F4D097,110000,20411021,20030000*52
$AOSEN,+00.0794,+00.0240,+00.9941,-0.0015,+0.0003,+0.0020,-0.0003,-0.0006,-0.0000*76
$GPGGA,094911.31,0957.371470,N,07809.061194,E,1,03,02.42,-095.78,M,,,,0000*20
$GPRMC,094911.31,A,0957.371470,N,07809.061194,E,000.00,000.59,110822,000.30,W,A*16
$AOVEL,+000.00,-000.00,+000.00,+000.00,-000.00,+000.00*51
$AOATT,+001.36,-04.60,-021.59,+0.98,+0.00,-0.04,-0.19,01*4f
$AOGPS,1,1,03,09.95619370,078.15102540,-95.793,0.060,0.000,2.620*4f
$AOSTS,62F4D097,310000,20411021,20030000*50
$AOSEN,+00.0808,+00.0237,+00.9953,-0.0015,-0.0018,+0.0019,-0.0008,+0.0020,-0.0004*74
$GPGGA,094911.51,0957.371470,N,07809.061194,E,1,03,02.42,-095.78,M,,,,0000*26
$GPRMC,094911.51,A,0957.371470,N,07809.061194,E,000.00,000.59,110822,000.30,W,A*10
$AOVEL,-000.00,+000.00,+000.00,-000.00,+000.00,+000.00*51
$AOATT,+001.35,-04.59,-021.59,+0.98,+0.00,-0.04,-0.19,01*46
$AOGPS,1,1,03,09.95619400,078.15102550,-95.752,0.002,0.000,2.620*47
$AOSTS,62F4D097,510000,20411021,20030000*56
$AOSEN,+00.0795,+00.0232,+00.9940,-0.0025,+0.0012,+0.0018,+0.0005,-0.0006,-0.0005*7e
$GPGGA,094911.71,0957.371470,N,07809.061194,E,1,03,02.42,-095.75,M,,,,0000*29
$GPRMC,094911.71,A,0957.371470,N,07809.061194,E,000.00,000.59,110822,000.30,W,A*12
$AOVEL,-000.00,-000.00,+000.00,-000.00,-000.00,+000.00*51
$AOATT,+001.36,-04.59,-021.59,+0.98,+0.00,-0.04,-0.19,01*45
$AOGPS,1,1,03,09.95619420,078.15102560,-95.447,0.001,0.000,2.620*42
$AOSTS,62F4D097,710000,20411021,20030000*54
$AOSEN,+00.0783,+00.0238,+00.9959,-0.0012,-0.0007,+0.0020,+0.0005,-0.0010,+0.0004*76
$GPGGA,094911.91,0957.371470,N,07809.061194,E,1,03,02.42,-095.68,M,,,,0000*2b
$GPRMC,094911.91,A,0957.371470,N,07809.061194,E,000.00,000.59,110822,000.30,W,A*1c
$AOVEL,-000.00,-000.00,+000.00,-000.00,-000.00,+000.00*51
$AOATT,+001.36,-04.60,-021.59,+0.98,+0.00,-0.04,-0.19,01*4f
$AOGPS,1,1,03,09.95619460,078.15102570,-95.356,0.018,0.000,2.620*48
$AOSTS,62F4D097,910000,20411021,20030000*5a
$AOSEN,+00.0809,+00.0245,+00.9951,+0.0001,-0.0035,+0.0025,-0.0011,+0.0020,+0.0004*7f
$GPGGA,094912.11,0957.371470,N,07809.061194,E,1,03,02.42,-095.63,M,,,,0000*2b
$GPRMC,094912.11,A,0957.371470,N,07809.061194,E,000.00,000.59,110822,000.30,W,A*17
$AOVEL,+000.00,-000.00,+000.00,+000.00,-000.00,+000.00*51
$AOATT,+001.36,-04.60,-021.59,+0.98,+0.00,-0.04,-0.19,01*4f
$AOGPS,1,1,03,09.95619490,078.15102580,-95.403,0.021,0.000,2.620*45
$AOSTS,62F4D098,110000,20411021,20030000*5d
$AOSEN,+00.0788,+00.0250,+00.9934,-0.0014,+0.0011,+0.0022,+0.0006,-0.0013,+0.0001*78
$GPGGA,094912.31,0957.371470,N,07809.061194,E,1,03,02.42,-095.59,M,,,,0000*20
$GPRMC,094912.31,A,0957.371470,N,07809.061194,E,000.00,000.59,110822,000.30,W,A*15
$AOVEL,+000.00,-000.00,+000.00,-000.00,-000.00,+000.00*57
$AOATT,+001.36,-04.60,-021.59,+0.98,+0.00,-0.04,-0.19,01*4f
$AOGPS,1,1,03,09.95619500,078.15102600,-95.476,0.026,0.000,2.620*43
$AOSTS,62F4D098,310000,20411021,20030000*5f
$AOSEN,+00.0801,+00.0248,+00.9940,-0.0004,-0.0004,+0.0016,-0.0009,+0.0004,-0.0002*74
$GPGGA,094912.51,0957.371470,N,07809.061194,E,1,03,02.42,-095.57,M,,,,0000*28
$GPRMC,094912.51,A,0957.371470,N,07809.061194,E,000.00,000.59,110822,000.30,W,A*13
$AOVEL,+000.00,-000.00,+000.00,-000.00,-000.00,+000.00*57
$AOATT,+001.36,-04.60,-021.59,+0.98,+0.00,-0.04,-0.19,01*4f
$AOGPS,1,1,03,09.95619530,078.15102600,-95.419,0.017,0.000,2.620*4b
$AOSTS,62F4D098,510000,20411021,20030000*59
$AOSEN,+00.0792,+00.0256,+00.9943,-0.0013,+0.0008,+0.0019,-0.0009,-0.0001,+0.0002*7b
$GPGGA,094912.71,0957.371470,N,07809.061194,E,1,03,02.42,-095.53,M,,,,0000*2e
$GPRMC,094912.71,A,0957.371470,N,07809.061194,E,000.00,000.59,110822,000.30,W,A*11
$AOVEL,+000.00,-000.00,+000.00,+000.00,-000.00,+000.00*51
$AOATT,+001.36,-04.60,-021.59,+0.98,+0.00,-0.04,-0.19,01*4f
$AOGPS,1,1,03,09.95619560,078.15102610,-95.267,0.012,0.000,2.620*45
$AOSTS,62F4D098,710000,20411021,20030000*5b
$AOSEN,+00.0802,+00.0244,+00.9945,-0.0012,-0.0014,+0.0020,-0.0006,+0.0004,+0.0001*77
$GPGGA,094912.91,0957.371470,N,07809.061194,E,1,03,02.42,-095.48,M,,,,0000*2a
$GPRMC,094912.91,A,0957.371470,N,07809.061194,E,000.00,000.59,110822,000.30,W,A*1f
$AOVEL,+000.00,-000.00,+000.00,-000.00,-000.00,+000.00*57
$AOATT,+001.36,-04.60,-021.59,+0.98,+0.00,-0.04,-0.19,01*4f
$AOGPS,1,1,03,09.95619580,078.15102620,-95.244,0.038,0.000,2.620*41
$AOSTS,62F4D098,910000,20411021,20030000*55
$AOSEN,+00.0798,+00.0257,+00.9945,-0.0014,-0.0001,+0.0021,-0.0000,+0.0002,-0.0002*7f
$GPGGA,094913.11,0957.371470,N,07809.061194,E,1,03,02.42,-095.43,M,,,,0000*28
$GPRMC,094913.11,A,0957.371470,N,07809.061194,E,000.00,000.59,110822,000.30,W,A*16
$AOVEL,+000.00,-000.00,+000.00,-000.00,-000.00,+000.00*57
$AOATT,+001.36,-04.60,-021.59,+0.98,+0.00,-0.04,-0.19,01*4f
$AOGPS,1,1,03,09.95619620,078.15102630,-95.232,0.059,0.000,2.620*4f
$AOSTS,62F4D099,110000,20411021,20030000*5c
$AOSEN,+00.0799,+00.0256,+00.9948,-0.0012,-0.0008,+0.0019,+0.0002,+0.0008,+0.0002*7e
$GPGGA,094913.31,0957.371470,N,07809.061194,E,1,03,02.43,-095.41,M,,,,0000*29
$GPRMC,094913.31,A,0957.371470,N,07809.061194,E,000.00,000.59,110822,000.30,W,A*14
$AOVEL,-000.00,-000.00,+000.00,-000.00,-000.00,+000.00*51
$AOATT,+001.36,-04.60,-021.59,+0.98,+0.00,-0.04,-0.19,01*4f
$AOGPS,1,1,03,09.95619660,078.15102630,-95.328,0.078,0.000,2.620*42
$AOSTS,62F4D099,310000,20411021,20030000*5e
$AOSEN,+00.0774,+00.0242,+00.9964,+0.0002,-0.0016,+0.0017,+0.0003,-0.0012,+0.0001*7f
$GPGGA,094913.51,0957.371472,N,07809.061196,E,1,03,02.43,-095.39,M,,,,0000*20
$GPRMC,094913.51,A,0957.371472,N,07809.061196,E,000.16,000.59,110822,000.30,W,A*15
$AOVEL,+000.04,+000.07,-000.00,+000.06,+000.05,+000.00*57
$AOATT,+001.36,-04.60,-021.59,+0.98,+0.00,-0.04,-0.19,01*4f
$AOGPS,1,1,03,09.95619680,078.15102650,-95.307,0.100,0.000,2.620*49
$AOSTS,62F4D099,510000,20411021,20030000*58
$AOSEN,+00.0790,+00.0266,+00.9996,+0.0012,-0.0035,+0.0023,-0.0024,+0.0010,+0.0004*7b
$GPGGA,094913.71,0957.371478,N,07809.061201,E,1,03,02.43,-095.36,M,,,,0000*2a
$GPRMC,094913.71,A,0957.371478,N,07809.061201,E,000.03,000.59,110822,000.30,W,A*14
$AOVEL,+000.01,+000.01,-000.00,+000.01,+000.01,+000.00*57
$AOATT,+001.36,-04.60,-021.59,+0.98,+0.00,-0.04,-0.19,01*4f
$AOGPS,1,1,03,09.95619710,078.15102650,-95.179,0.090,0.000,2.620*42
$AOSTS,62F4D099,710000,20411021,20030000*5a
$AOSEN,+00.0774,+00.0271,+00.9948,-0.0021,+0.0002,+0.0020,+0.0007,-0.0015,-0.0003*76
$GPGGA,094913.91,0957.371480,N,07809.061203,E,1,03,02.43,-095.35,M,,,,0000*22
$GPRMC,094913.91,A,0957.371480,N,07809.061203,E,000.16,000.59,110822,000.30,W,A*1b
$AOVEL,+000.04,+000.07,-000.01,+000.07,+000.05,+000.00*57
$AOATT,+001.36,-04.60,-021.59,+0.98,+0.00,-0.04,-0.19,01*4f
$AOGPS,1,1,03,09.95619730,078.15102660,-95.365,0.101,0.000,2.620*45
$AOSTS,62F4D099,910000,20411021,20030000*54
$AOSEN,+00.0793,+00.0269,+00.9950,-0.0008,-0.0013,+0.0021,-0.0003,+0.0008,-0.0001*79
$GPGGA,094914.11,0957.371487,N,07809.061207,E,1,03,02.43,-095.34,M,,,,0000*2f
$GPRMC,094914.11,A,0957.371487,N,07809.061207,E,000.03,000.59,110822,000.30,W,A*13
$AOVEL,+000.01,+000.01,-000.00,+000.01,+000.01,+000.00*57
$AOATT,+001.37,-04.59,-021.59,+0.98,+0.00,-0.04,-0.19,01*44
$AOGPS,1,1,03,09.95619760,078.15102670,-95.262,0.071,0.000,2.620*41
$AOSTS,62F4D09A,110000,20411021,20030000*24
$AOSEN,+00.0799,+00.0265,+00.9950,-0.0019,-0.0004,+0.0019,-0.0013,+0.0017,-0.0002*7e
$GPGGA,094914.31,0957.371487,N,07809.061207,E,1,03,02.43,-095.32,M,,,,0000*2b
$GPRMC,094914.31,A,0957.371487,N,07809.061207,E,000.00,000.59,110822,000.30,W,A*12
$AOVEL,+000.00,-000.00,+000.00,+000.00,-000.00,+000.00*51
$AOATT,+001.36,-04.60,-021.60,+0.98,+0.00,-0.04,-0.19,01*45
$AOGPS,1,1,03,09.95619790,078.15102670,-95.187,0.095,0.000,2.620*4c
$AOSTS,62F4D09A,310000,20411021,20030000*26
$AOSEN,+00.0803,+00.0254,+00.9947,-0.0019,-0.0016,+0.0018,-0.0007,+0.0001,-0.0002*76
$GPGGA,094914.51,0957.371487,N,07809.061207,E,1,03,02.43,-095.30,M,,,,0000*2f
$GPRMC,094914.51,A,0957.371487,N,07809.061207,E,000.00,000.59,110822,000.30,W,A*14
$AOVEL,+000.00,-000.00,+000.00,-000.00,-000.00,+000.00*57
$AOATT,+001.36,-04.60,-021.60,+0.98,+0.00,-0.04,-0.19,01*45
$AOGPS,1,1,03,09.95619820,078.15102680,-95.187,0.080,0.000,2.620*43
$AOSTS,62F4D09A,510000,20411021,20030000*20
$AOSEN,+00.0798,+00.0251,+00.9951,+0.0024,-0.0023,+0.0020,-0.0034,+0.0006,+0.0003*7c
$GPGGA,094914.71,0957.371487,N,07809.061207,E,1,03,02.43,-095.27,M,,,,0000*2b
$GPRMC,094914.71,A,0957.371487,N,07809.061207,E,000.00,000.59,110822,000.30,W,A*16
$AOVEL,+000.00,-000.00,+000.00,-000.00,-000.00,+000.00*57
$AOATT,+001.37,-04.60,-021.60,+0.98,+0.00,-0.04,-0.19,01*44
$AOGPS,1,1,03,09.95619840,078.15102680,-95.167,0.060,0.000,2.620*45
$AOSTS,62F4D09A,710000,20411021,20030000*22
$AOSEN,+00.0797,+00.0250,+00.9938,-0.0016,+0.0009,+0.0017,+0.0005,-0.0003,-0.0003*71
$GPGGA,094914.91,0957.371487,N,07809.061207,E,1,03,02.43,-095.24,M,,,,0000*26
$GPRMC,094914.91,A,0957.371487,N,07809.061207,E,000.00,000.59,110822,000.30,W,A*18
$AOVEL,+000.00,-000.00,-000.00,+000.00,-000.00,-000.00*51
$AOATT,+001.37,-04.60,-021.60,+0.98,+0.00,-0.04,-0.19,01*44
$AOGPS,1,1,03,09.95619870,078.15102690,-95.027,0.058,0.000,2.620*49
$AOSTS,62F4D09A,910000,20411021,20030000*2c
$AOSEN,+00.0801,+00.0245,+00.9932,-0.0015,+0.0004,+0.0015,+0.0005,-0.0003,-0.0004*74
$GPGGA,094915.11,0957.371487,N,07809.061207,E,1,03,02.43,-095.19,M,,,,0000*21
$GPRMC,094915.11,A,0957.371487,N,07809.061207,E,000.00,000.59,110822,000.30,W,A*11
$AOVEL,+000.00,-000.00,+000.00,+000.00,-000.00,+000.00*51
$AOATT,+001.37,-04.60,-021.60,+0.98,+0.00,-0.04,-0.19,01*44
$AOGPS,1,1,03,09.95619900,078.15102690,-94.872,0.029,0.000,2.620*40
$AOSTS,62F4D09B,110000,20411021,20030000*27
$AOSEN,+00.0785,+00.0240,+00.9935,-0.0020,+0.0015,+0.0021,+0.0006,-0.0017,-0.0002*74
$GPGGA,094915.31,0957.371487,N,07809.061207,E,1,03,02.43,-095.12,M,,,,0000*28
$GPRMC,094915.31,A,0957.371487,N,07809.061207,E,000.00,000.59,110822,000.30,W,A*13
$AOVEL,+000.00,+000.00,+000.00,+000.00,-000.00,+000.00*57
$AOATT,+001.37,-04.60,-021.60,+0.98,+0.00,-0.04,-0.19,01*44
$AOGPS,1,1,03,09.95619930,078.15102700,-94.738,0.029,0.000,2.620*4a
$AOSTS,62F4D09B,310000,20411021,20030000*25
$AOSEN,+00.0798,+00.0240,+00.9934,-0.0023,-0.0000,+0.0019,+0.0013,-0.0002,+0.0000*77
$GPGGA,094915.51,0957.371487,N,07809.061207,E,1,03,02.43,-095.04,M,,,,0000*29
$GPRMC,094915.51,A,0957.371487,N,07809.061207,E,000.00,000.59,110822,000.30,W,A*15
$AOVEL,+000.00,-000.00,+000.00,+000.00,-000.00,+000.00*51
$AOATT,+001.37,-04.59,-021.60,+0.98,+0.00,-0.04,-0.19,01*4e
$AOGPS,1,1,03,09.95619970,078.15102710,-94.606,0.009,0.000,2.620*41
$AOSTS,62F4D09B,510000,20411021,20030000*23
$AOSEN,+00.0793,+00.0238,+00.9942,-0.0013,+0.0026,+0.0021,+0.0020,+0.0006,+0.0003*79
$GPGGA,094915.71,0957.371487,N,07809.061207,E,1,03,02.43,-094.97,M,,,,0000*20
$GPRMC,094915.71,A,0957.371487,N,07809.061207,E,000.00,000.59,110822,000.30,W,A*17
$AOVEL,+000.00,-000.00,+000.00,+000.00,-000.00,+000.00*51
$AOATT,+001.37,-04.60,-021.60,+0.98,+0.00,-0.04,-0.19,01*44
$AOGPS,1,1,03,09.95620010,078.15102710,-94.714,0.045,0.000,2.620*4e
$AOSTS,62F4D09B,710000,20411021,20030000*21
$AOSEN,+00.0799,+00.0256,+00.9940,-0.0028,+0.0003,+0.0018,+0.0004,-0.0010,-0.0005*7b
$GPGGA,094915.91,0957.371487,N,07809.061207,E,1,03,02.43,-094.91,M,,,,0000*28
$GPRMC,094915.91,A,0957.371487,N,07809.061207,E,000.00,000.59,110822,000.30,W,A*19
$AOVEL,+000.00,-000.00,+000.00,-000.00,-000.00,+000.00*57
$AOATT,+001.37,-04.60,-021.60,+0.98,+0.00,-0.04,-0.19,01*44
$AOGPS,1,1,03,09.95620040,078.15102720,-94.608,0.022,0.000,2.620*45
$AOSTS,62F4D09B,910000,20411021,20030000*2f
$AOSEN,+00.0797,+00.0246,+00.9946,-0.0008,+0.0001,+0.0017,+0.0005,+0.0004,-0.0004*7e
$GPGGA,094916.11,0957.371487,N,07809.061207,E,1,03,02.43,-094.87,M,,,,0000*24
$GPRMC,094916.11,A,0957.371487,N,07809.061207,E,000.00,000.59,110822,000.30,W,A*12
$AOVEL,+000.00,-000.00,+000.00,+000.00,-000.00,+000.00*51
$AOATT,+001.37,-04.60,-021.61,+0.98,+0.00,-0.04,-0.19,01*45
$AOGPS,1,1,03,09.95620070,078.15102720,-94.796,0.019,0.000,2.620*48
$AOSTS,62F4D09C,110000,20411021,20030000*26
$AOSEN,+00.0797,+00.0249,+00.9943,-0.0009,+0.0004,+0.0020,+0.0002,+0.0002,-0.0002*73
$GPGGA,094916.31,0957.371487,N,07809.061207,E,1,03,02.43,-094.87,M,,,,0000*26
$GPRMC,094916.31,A,0957.371487,N,07809.061207,E,000.00,000.59,110822,000.30,W,A*10
$AOVEL,+000.00,-000.00,+000.00,+000.00,-000.00,+000.00*51
$AOATT,+001.37,-04.60,-021.61,+0.98,+0.00,-0.04,-0.19,01*45
$AOGPS,1,1,03,09.95620100,078.15102720,-94.859,0.007,0.000,2.630*4c
$AOSTS,62F4D09C,310000,20411021,20030000*24
$AOSEN,+00.0800,+00.0245,+00.9945,-0.0016,-0.0004,+0.0023,+0.0011,+0.0008,-0.0004*7d
$GPGGA,094916.51,0957.371487,N,07809.061207,E,1,03,02.43,-094.86,M,,,,0000*21
$GPRMC,094916.51,A,0957.371487,N,07809.061207,E,000.00,000.59,110822,000.30,W,A*16
$AOVEL,+000.00,-000.00,+000.00,-000.00,-000.00,+000.00*57
$AOATT,+001.37,-04.60,-021.61,+0.98,+0.00,-0.04,-0.19,01*45
$AOGPS,1,1,03,09.95620140,078.15102720,-94.836,0.020,0.000,2.630*44
$AOSTS,62F4D09C,510000,20411021,20030000*22
$AOSEN,+00.0803,+00.0247,+00.9941,-0.0018,-0.0007,+0.0024,+0.0002,+0.0005,+0.0002*7d
$GPGGA,094916.71,0957.371488,N,07809.061208,E,1,03,02.43,-094.84,M,,,,0000*21
$GPRMC,094916.71,A,0957.371488,N,07809.061208,E,000.00,000.59,110822,000.30,W,A*14
$AOVEL,-000.00,-000.00,+000.00,-000.00,-000.00,+000.00*51
$AOATT,+001.37,-04.60,-021.61,+0.98,+0.00,-0.04,-0.19,01*45
$AOGPS,1,1,03,09.95620170,078.15102720,-94.670,0.014,0.000,2.630*4c
$AOSTS,62F4D09C,710000,20411021,20030000*20
$AOSEN,+00.0793,+00.0242,+00.9932,-0.0017,+0.0006,+0.0017,+0.0002,-0.0007,-0.0000*72
$GPGGA,094916.91,0957.371489,N,07809.061209,E,1,03,02.43,-094.82,M,,,,0000*29
$GPRMC,094916.91,A,0957.371489,N,07809.061209,E,000.00,000.59,110822,000.30,W,A*1a
$AOVEL,+000.00,-000.00,+000.00,-000.00,-000.00,+000.00*57
$AOATT,+001.37,-04.60,-021.61,+0.98,+0.00,-0.04,-0.19,01*45
$AOGPS,1,1,03,09.95620210,078.15102730,-94.802,0.012,0.000,2.630*45
$AOSTS,62F4D09C,910000,20411021,20030000*2e
$AOSEN,+00.0789,+00.0250,+00.9942,-0.0008,+0.0007,+0.0019,+0.0007,-0.0008,-0.0000*76
$GPGGA,094917.11,0957.371497,N,07809.061213,E,1,03,02.43,-094.82,M,,,,0000*24
$GPRMC,094917.11,A,0957.371497,N,07809.061213,E,000.00,000.59,110822,000.30,W,A*17
$AOVEL,+000.00,-000.00,+000.00,+000.00,-000.00,+000.00*51
$AOATT,+001.37,-04.60,-021.61,+0.98,+0.00,-0.04,-0.19,01*45
$AOGPS,1,1,03,09.95620230,078.15102720,-94.756,0.041,0.000,2.630*4e
$AOSTS,62F4D09D,110000,20411021,20030000*21
$AOSEN,+00.0796,+00.0249,+00.9943,-0.0013,-0.0008,+0.0020,-0.0001,+0.0002,-0.0001*75
$GPGGA,094917.31,0957.371523,N,07809.061228,E,1,03,02.43,-094.82,M,,,,0000*20
$GPRMC,094917.31,A,0957.371523,N,07809.061228,E,000.00,000.59,110822,000.30,W,A*13
$AOVEL,+000.00,-000.00,+000.00,-000.00,-000.00,+000.00*57
$AOATT,+001.37,-04.60,-021.61,+0.98,+0.00,-0.04,-0.19,01*45
$AOGPS,1,1,03,09.95620260,078.15102730,-94.872,0.020,0.000,2.630*44
$AOSTS,62F4D09D,310000,20411021,20030000*23
$AOSEN,+00.0799,+00.0248,+00.9936,-0.0013,+0.0004,+0.0021,+0.0009,+0.0003,-0.0001*7d
$GPGGA,094917.51,0957.371582,N,07809.061262,E,1,03,02.43,-094.83,M,,,,0000*22
$GPRMC,094917.51,A,0957.371582,N,07809.061262,E,000.00,000.59,110822,000.30,W,A*10
$AOVEL,+000.00,-000.00,+000.00,+000.00,-000.00,+000.00*51
$AOATT,+001.37,-04.60,-021.62,+0.98,+0.00,-0.04,-0.19,01*46
$AOGPS,1,1,03,09.95620300,078.15102730,-94.878,0.007,0.000,2.630*4c
$AOSTS,62F4D09D,510000,20411021,20030000*25
$AOSEN,+00.0801,+00.0241,+00.9945,-0.0015,-0.0006,+0.0020,+0.0002,+0.0004,+0.0001*77
$GPGGA,094917.71,0957.371678,N,07809.061316,E,1,03,02.43,-094.84,M,,,,0000*23
$GPRMC,094917.71,A,0957.371678,N,07809.061316,E,000.00,000.59,110822,000.30,W,A*16
$AOVEL,+000.00,-000.00,+000.00,+000.00,-000.00,+000.00*51
$AOATT,+001.37,-04.60,-021.62,+0.98,+0.00,-0.04,-0.19,01*46
$AOGPS,1,1,03,09.95620330,078.15102730,-94.963,0.016,0.000,2.630*44
$AOSTS,62F4D09D,710000,20411021,20030000*27
$AOSEN,+00.0800,+00.0238,+00.9934,-0.0016,-0.0005,+0.0019,-0.0004,-0.0007,-0.0004*72
$GPGGA,094917.91,0957.371788,N,07809.061377,E,1,03,02.43,-094.87,M,,,,0000*27
$GPRMC,094917.91,A,0957.371788,N,07809.061377,E,000.00,000.59,110822,000.30,W,A*11
$AOVEL,+000.00,+000.00,+000.00,+000.00,+000.00,+000.00*51
$AOATT,+001.37,-04.60,-021.62,+0.98,+0.00,-0.04,-0.19,01*46
$AOGPS,1,1,03,09.95620370,078.15102730,-94.995,0.012,0.000,2.630*4d
$AOSTS,62F4D09D,910000,20411021,20030000*29
$AOSEN,+00.0793,+00.0234,+00.9936,-0.0016,+0.0010,+0.0022,+0.0006,-0.0007,+0.0003*76
$GPGGA,094918.11,0957.371881,N,07809.061429,E,1,03,02.43,-094.88,M,,,,0000*25
$GPRMC,094918.11,A,0957.371881,N,07809.061429,E,000.00,000.59,110822,000.30,W,A*1c
$AOVEL,+000.00,-000.00,+000.00,+000.00,-000.00,+000.00*51
$AOATT,+001.37,-04.60,-021.62,+0.98,+0.00,-0.04,-0.19,01*46
$AOGPS,1,1,03,09.95620390,078.15102730,-94.909,0.009,0.000,2.630*4c
$AOSTS,62F4D09E,110000,20411021,20030000*20
$AOSEN,+00.0799,+00.0236,+00.9938,-0.0009,-0.0004,+0.0017,+0.0006,-0.0005,-0.0002*7e
$GPGGA,094918.31,0957.371952,N,07809.061468,E,1,03,02.43,-094.89,M,,,,0000*2c
$GPRMC,094918.31,A,0957.371952,N,07809.061468,E,000.00,000.59,110822,000.30,W,A*14
$AOVEL,+000.00,-000.00,+000.00,+000.00,-000.00,+000.00*51
$AOATT,+001.37,-04.60,-021.62,+0.98,+0.00,-0.04,-0.19,01*46
$AOGPS,1,1,03,09.95620430,078.15102730,-94.976,0.022,0.000,2.630*40
$AOSTS,62F4D09E,310000,20411021,20030000*22
$AOSEN,+00.0805,+00.0242,+00.9949,-0.0041,-0.0023,+0.0023,+0.0005,+0.0023,+0.0002*78
$GPGGA,094918.51,0957.372007,N,07809.061496,E,1,03,02.43,-094.91,M,,,,0000*28
$GPRMC,094918.51,A,0957.372007,N,07809.061496,E,000.00,000.59,110822,000.30,W,A*19
$AOVEL,+000.00,+000.00,+000.00,+000.00,+000.00,+000.00*51
$AOATT,+001.37,-04.59,-021.62,+0.98,+0.00,-0.04,-0.19,01*4c
$AOGPS,1,1,03,09.95620460,078.15102730,-95.032,0.028,0.000,2.630*47
$AOSTS,62F4D09E,510000,20411021,20030000*24
$AOSEN,+00.0799,+00.0234,+00.9952,-0.0004,-0.0009,+0.0020,-0.0003,+0.0020,-0.0003*77
$GPGGA,094918.71,0957.372051,N,07809.061518,E,1,03,02.43,-094.92,M,,,,0000*2d
$GPRMC,094918.71,A,0957.372051,N,07809.061518,E,000.00,000.59,110822,000.30,W,A*1f
$AOVEL,+000.00,+000.00,+000.00,+000.00,-000.00,+000.00*57
$AOATT,+001.37,-04.60,-021.62,+0.98,+0.00,-0.04,-0.19,01*46
$AOGPS,1,1,03,09.95620490,078.15102730,-94.897,0.020,0.000,2.630*46
$AOSTS,62F4D09E,710000,20411021,20030000*26
$AOSEN,+00.0797,+00.0238,+00.9941,-0.0011,-0.0008,+0.0017,+0.0010,+0.0005,+0.0001*71
$GPGGA,094918.91,0957.372087,N,07809.061534,E,1,03,02.43,-094.91,M,,,,0000*25
$GPRMC,094918.91,A,0957.372087,N,07809.061534,E,000.00,000.59,110822,000.30,W,A*14
$AOVEL,+000.00,+000.00,+000.00,+000.00,+000.00,+000.00*51
$AOATT,+001.37,-04.60,-021.63,+0.98,+0.00,-0.04,-0.19,01*47
$AOGPS,1,1,03,09.95620530,078.15102730,-94.822,0.013,0.000,2.630*43
$AOSTS,62F4D09E,910000,20411021,20030000*28
$AOSEN,+00.0806,+00.0234,+00.9942,-0.0013,-0.0005,+0.0020,+0.0000,+0.0009,+0.0003*7d
$GPGGA,094919.11,0957.372119,N,07809.061547,E,1,03,02.43,-094.89,M,,,,0000*27
$GPRMC,094919.11,A,0957.372119,N,07809.061547,E,000.00,000.59,110822,000.30,W,A*1f
$AOVEL,+000.00,+000.00,+000.00,+000.00,+000.00,+000.00*51
$AOATT,+001.38,-04.60,-021.63,+0.98,+0.00,-0.04,-0.19,01*48
$AOGPS,1,1,03,09.95620560,078.15102730,-94.815,0.013,0.000,2.630*42
$AOSTS,62F4D09F,110000,20411021,20030000*23
$AOSEN,+00.0793,+00.0235,+00.9936,-0.0024,+0.0028,+0.0016,+0.0026,-0.0037,-0.0000*7e
$GPGGA,094919.31,0957.372147,N,07809.061558,E,1,03,02.43,-094.88,M,,,,0000*21
$GPRMC,094919.31,A,0957.372147,N,07809.061558,E,000.00,000.59,110822,000.30,W,A*18
$AOVEL,+000.00,-000.00,+000.00,+000.00,-000.00,+000.00*51
$AOATT,+001.37,-04.60,-021.63,+0.98,+0.00,-0.04,-0.19,01*47
$AOGPS,1,1,03,09.95620590,078.15102730,-94.836,0.026,0.000,2.630*4a
$AOSTS,62F4D09F,310000,20411021,20030000*21
$AOSEN,+00.0785,+00.0235,+00.9945,-0.0017,+0.0008,+0.0020,+0.0008,-0.0025,-0.0007*72
$GPGGA,094919.51,0957.372172,N,07809.061567,E,1,03,02.43,-094.86,M,,,,0000*23
$GPRMC,094919.51,A,0957.372172,N,07809.061567,E,000.00,000.59,110822,000.30,W,A*14
$AOVEL,-000.00,+000.00,+000.00,-000.00,+000.00,+000.00*51
$AOATT,+001.37,-04.60,-021.63,+0.98,+0.00,-0.04,-0.19,01*47
$AOGPS,1,1,03,09.95620630,078.15102730,-94.643,0.033,0.000,2.630*4b
$AOSTS,62F4D09F,510000,20411021,20030000*27
$AOSEN,+00.0800,+00.0237,+00.9945,-0.0002,-0.0013,+0.0019,+0.0004,-0.0004,-0.0004*7c
$GPGGA,094919.71,0957.372196,N,07809.061574,E,1,03,02.43,-094.82,M,,,,0000*2d
$GPRMC,094919.71,A,0957.372196,N,07809.061574,E,000.00,000.59,110822,000.30,W,A*1e
$AOVEL,-000.00,-000.00,+000.00,-000.00,+000.00,+000.00*57
$AOATT,+001.38,-04.59,-021.63,+0.98,+0.00,-0.04,-0.19,01*42
$AOGPS,1,1,03,09.95620660,078.15102720,-94.628,0.066,0.000,2.630*42
$AOSTS,62F4D09F,710000,20411021,20030000*25
$AOSEN,+00.0806,+00.0240,+00.9931,+0.0005,-0.0001,+0.0022,-0.0004,+0.0018,+0.0001*7d
$GPGGA,094919.91,0957.372219,N,07809.061581,E,1,03,02.43,-094.80,M,,,,0000*2f
$GPRMC,094919.91,A,0957.372219,N,07809.061581,E,000.00,000.59,110822,000.30,W,A*1e
$AOVEL,+000.00,+000.00,+000.00,+000.00,-000.00,+000.00*57
$AOATT,+001.37,-04.60,-021.63,+0.98,+0.00,-0.04,-0.19,01*47
$AOGPS,1,1,03,09.95620700,078.15102730,-94.853,0.065,0.000,2.630*45
$AOSTS,62F4D09F,910000,20411021,20030000*2b
$AOSEN,+00.0797,+00.0243,+00.9938,-0.0005,+0.0015,+0.0018,-0.0011,-0.0010,-0.0001*70
$GPGGA,094920.11,0957.372241,N,07809.061586,E,1,03,02.43,-094.80,M,,,,0000*27
$GPRMC,094920.11,A,0957.372241,N,07809.061586,E,000.00,000.59,110822,000.30,W,A*16
$AOVEL,+000.00,+000.00,-000.00,+000.00,+000.00,-000.00*51
$AOATT,+001.37,-04.60,-021.64,+0.98,+0.00,-0.04,-0.19,01*40
$AOGPS,1,1,03,09.95620740,078.15102730,-94.716,0.040,0.000,2.630*48
$AOSTS,62F4D0A0,110000,20411021,20030000*2d
$AOSEN,+00.0796,+00.0233,+00.9943,-0.0016,+0.0026,+0.0017,-0.0014,-0.0014,-0.0000*77
$GPGGA,094920.31,0957.372262,N,07809.061591,E,1,03,02.43,-094.79,M,,,,0000*24
$GPRMC,094920.31,A,0957.372262,N,07809.061591,E,000.00,000.59,110822,000.30,W,A*13
$AOVEL,+000.00,-000.00,+000.00,+000.00,-000.00,+000.00*51
$AOATT,+001.37,-04.59,-021.64,+0.98,+0.00,-0.04,-0.19,01*4a
$AOGPS,1,1,03,09.95620770,078.15102720,-94.794,0.016,0.000,2.630*43
$AOSTS,62F4D0A0,310000,20411021,20030000*2f
$AOSEN,+00.0807,+00.0240,+00.9945,-0.0013,-0.0011,+0.0017,-0.0003,+0.0035,-0.0005*73
$GPGGA,094920.51,0957.372283,N,07809.061595,E,1,03,02.43,-094.80,M,,,,0000*2f
$GPRMC,094920.51,A,0957.372283,N,07809.061595,E,000.00,000.59,110822,000.30,W,A*1e
$AOVEL,+000.00,-000.00,+000.00,+000.00,-000.00,+000.00*51
$AOATT,+001.37,-04.59,-021.64,+0.98,+0.00,-0.04,-0.19,01*4a
$AOGPS,1,1,03,09.95620800,078.15102720,-94.835,0.026,0.000,2.630*4c
$AOSTS,62F4D0A0,510000,20411021,20030000*29
$AOSEN,+00.0801,+00.0240,+00.9940,-0.0015,+0.0000,+0.0019,+0.0004,+0.0005,-0.0005*7c
$GPGGA,094920.71,0957.372303,N,07809.061598,E,1,03,02.43,-094.79,M,,,,0000*2f
$GPRMC,094920.71,A,0957.372303,N,07809.061598,E,000.00,000.59,110822,000.30,W,A*18
$AOVEL,+000.00,-000.00,+000.00,+000.00,-000.00,+000.00*51
$AOATT,+001.37,-04.59,-021.64,+0.98,+0.00,-0.04,-0.19,01*4a
$AOGPS,1,1,03,09.95620840,078.15102720,-94.704,0.017,0.000,2.630*47
$AOSTS,62F4D0A0,710000,20411021,20030000*2b
$AOSEN,+00.0794,+00.0241,+00.9942,-0.0015,+0.0008,+0.0021,-0.0008,-0.0002,-0.0005*74
$GPGGA,094920.91,0957.372324,N,07809.061601,E,1,03,02.43,-094.77,M,,,,0000*29
$GPRMC,094920.91,A,0957.372324,N,07809.061601,E,000.00,000.59,110822,000.30,W,A*10
$AOVEL,+000.00,-000.00,+000.00,+000.00,-000.00,+000.00*51
$AOATT,+001.37,-04.60,-021.64,+0.98,+0.00,-0.04,-0.19,01*40
$AOGPS,1,1,03,09.95620880,078.15102720,-94.656,0.032,0.000,2.630*4a
$AOSTS,62F4D0A0,910000,20411021,20030000*25
$AOSEN,+00.0798,+00.0243,+00.9942,-0.0016,-0.0006,+0.0018,-0.0003,+0.0000,-0.0007*76
$GPGGA,094921.11,0957.372344,N,07809.061604,E,1,03,02.43,-094.74,M,,,,0000*20
$GPRMC,094921.11,A,0957.372344,N,07809.061604,E,000.00,000.59,110822,000.30,W,A*1a
$AOVEL,+000.00,-000.00,+000.00,+000.00,-000.00,+000.00*51
$AOATT,+001.37,-04.60,-021.64,+0.98,+0.00,-0.04,-0.19,01*40
$AOGPS,1,1,03,09.95620910,078.15102710,-94.595,0.052,0.000,2.630*4b
$AOSTS,62F4D0A1,110000,20411021,20030000*2c
$AOSEN,+00.0801,+00.0241,+00.9936,-0.0014,-0.0003,+0.0022,+0.0005,-0.0010,+0.0001*71
$GPGGA,094921.31,0957.372364,N,07809.061606,E,1,03,02.43,-094.70,M,,,,0000*26
$GPRMC,094921.31,A,0957.372364,N,07809.061606,E,000.00,000.59,110822,000.30,W,A*18
$AOVEL,+000.00,+000.00,+000.00,+000.00,-000.00,+000.00*57
$AOATT,+001.37,-04.60,-021.65,+0.98,+0.00,-0.04,-0.19,01*41
$AOGPS,1,1,03,09.95620950,078.15102710,-94.468,0.041,0.000,2.630*4e
$AOSTS,62F4D0A1,310000,20411021,20030000*2e
$AOSEN,+00.0798,+00.0240,+00.9942,-0.0016,+0.0001,+0.0017,-0.0001,+0.0005,-0.0004*7f
$GPGGA,094921.51,0957.372384,N,07809.061607,E,1,03,02.43,-094.68,M,,,,0000*26
$GPRMC,094921.51,A,0957.372384,N,07809.061607,E,000.00,000.59,110822,000.30,W,A*11
$AOVEL,+000.00,-000.00,+000.00,+000.00,-000.00,+000.00*51
$AOATT,+001.37,-04.60,-021.65,+0.98,+0.00,-0.04,-0.19,01*41
$AOGPS,1,1,03,09.95620970,078.15102700,-94.624,0.022,0.000,2.630*42
$AOSTS,62F4D0A1,510000,20411021,20030000*28
$AOSEN,+00.0785,+00.0241,+00.9944,-0.0015,-0.0006,+0.0020,+0.0001,-0.0013,-0.0001*70
$GPGGA,094921.71,0957.372403,N,07809.061609,E,1,03,02.43,-094.65,M,,,,0000*2f
$GPRMC,094921.71,A,0957.372403,N,07809.061609,E,000.00,000.59,110822,000.30,W,A*15
$AOVEL,+000.00,-000.00,+000.00,+000.00,-000.00,+000.00*51
$AOATT,+001.37,-04.60,-021.65,+0.98,+0.00,-0.04,-0.19,01*41
$AOGPS,1,1,03,09.95621010,078.15102710,-94.491,0.034,0.000,2.630*46
$AOSTS,62F4D0A1,710000,20411021,20030000*2a
$AOSEN,+00.0791,+00.0244,+00.9946,-0.0022,+0.0011,+0.0019,-0.0001,-0.0005,-0.0003*7f
$GPGGA,094921.91,0957.372422,N,07809.061610,E,1,03,02.43,-094.60,M,,,,0000*2f
$GPRMC,094921.91,A,0957.372422,N,07809.061610,E,000.00,000.59,110822,000.30,W,A*10
$AOVEL,+000.00,+000.00,+000.00,+000.00,-000.00,+000.00*57
$AOATT,+001.37,-04.60,-021.65,+0.98,+0.00,-0.04,-0.19,01*41
$AOGPS,1,1,03,09.95621050,078.15102700,-94.228,0.019,0.000,2.630*48
